timestamp,phase,battery_v,x_m,y_m,z_m
1776994592.166508,takeoff,3.8639297485351562,0.011401992291212082,-0.0029946472495794296,0.016162456944584846
1776994592.271552,takeoff,3.9008798599243164,0.011291482485830784,0.0004244813462719321,0.016092076897621155
1776994592.376589,takeoff,3.916715621948242,0.007618531119078398,-0.0002243104245280847,0.015068411827087402
1776994592.476668,takeoff,3.916715621948242,0.01515146903693676,-0.0008943573338910937,0.01704561337828636
1776994592.579587,takeoff,3.916715621948242,0.011975969187915325,0.003732364857569337,0.016061654314398766
1776994592.681579,takeoff,3.9114370346069336,0.005121217109262943,-0.0015357865486294031,0.016229772940278053
1776994592.782482,takeoff,3.916715621948242,-0.007670375518500805,0.008932860568165779,0.014518420211970806
1776994592.883255,takeoff,3.9114370346069336,-0.01726347953081131,0.013458757661283016,0.011931713670492172
1776994592.986225,takeoff,3.916715621948242,-0.017700158059597015,0.015228157863020897,0.014458696357905865
1776994593.091346,takeoff,3.916715621948242,-0.025213412940502167,0.019028039649128914,0.01540595106780529
1776994593.195047,takeoff,3.916715621948242,-0.03068568743765354,0.0189225934445858,0.01641312800347805
1776994593.298408,takeoff,3.906158447265625,-0.02496468275785446,0.013252330012619495,0.015565210953354836
1776994593.40287,takeoff,3.916715621948242,-0.023482516407966614,0.019089804962277412,0.012156518176198006
1776994593.504415,takeoff,3.9114370346069336,-0.018718890845775604,0.026247527450323105,0.011823331005871296
1776994593.605066,takeoff,3.906158447265625,-0.017686525359749794,0.024785678833723068,0.01149049960076809
1776994593.7064488,takeoff,3.906158447265625,-0.0056923129595816135,0.028189748525619507,0.013516395352780819
1776994593.809205,takeoff,3.906158447265625,-0.010392574593424797,0.03310054913163185,0.018527109175920486
1776994593.91066,takeoff,3.9114370346069336,-0.010085518471896648,0.03076379932463169,0.01964395120739937
1776994594.013674,takeoff,3.9008798599243164,-0.008288425393402576,0.036105021834373474,0.01584853045642376
1776994594.118491,takeoff,3.9008798599243164,-0.015982866287231445,0.03480540215969086,0.017459196969866753
1776994594.219915,takeoff,3.9114370346069336,-0.017285345122218132,0.03469635918736458,0.018466122448444366
1776994594.323658,takeoff,3.906158447265625,-0.02646796591579914,0.02464660070836544,0.016139723360538483
1776994594.426603,takeoff,3.906158447265625,-0.045776646584272385,-0.010522154159843922,0.010344176553189754
1776994594.527329,takeoff,3.9008798599243164,-0.048757221549749374,-0.020835701376199722,0.014849035069346428
1776994594.630147,takeoff,3.9008798599243164,-0.05042478069663048,-0.0218502264469862,0.015538910403847694
1776994594.73515,takeoff,3.9008798599243164,-0.04745813086628914,-0.022728733718395233,0.017377281561493874
1776994594.8371332,takeoff,3.8850440979003906,-0.0459597148001194,-0.031162263825535774,0.01741427183151245
1776994594.9405398,takeoff,3.8850440979003906,-0.039152566343545914,-0.023243773728609085,0.016903754323720932
1776994595.043988,takeoff,3.8744869232177734,-0.014458471909165382,-0.020309414714574814,0.014233551919460297
1776994595.1469939,takeoff,3.869208335876465,0.0017629414796829224,-0.02288171648979187,0.015053076669573784
1776994595.252095,takeoff,3.8639297485351562,0.011079136282205582,-0.03008558601140976,0.01806938461959362
1776994595.354839,takeoff,3.8639297485351562,0.01704428903758526,-0.03418641909956932,0.015972252935171127
1776994595.45563,takeoff,3.8586511611938477,0.021234912797808647,-0.03585013374686241,0.006590649019926786
1776994595.5562901,takeoff,3.8480939865112305,0.011520348489284515,-0.02579442411661148,0.0018706031842157245
1776994595.661383,takeoff,3.8480939865112305,0.022219078615307808,-0.021071018651127815,0.011594625189900398
1776994595.763658,takeoff,3.869208335876465,0.020196467638015747,-0.021338114514946938,0.03375118598341942
1776994595.864449,takeoff,3.853372573852539,0.020536933094263077,-0.015758652240037918,0.056202758103609085
1776994595.966951,takeoff,3.853372573852539,0.024560829624533653,-0.009329093620181084,0.0849369466304779
1776994596.068514,takeoff,3.842815399169922,0.030584421008825302,-0.0074791619554162025,0.09613985568284988
1776994596.173611,takeoff,3.842815399169922,0.04014301672577858,-0.005683357361704111,0.10176923125982285
1776994596.278413,takeoff,3.8744869232177734,0.0415133498609066,0.001266059698536992,0.08949712663888931
1776994596.383463,takeoff,3.879765510559082,-0.0011556940153241158,0.0312948003411293,0.06964427977800369
1776994596.486196,takeoff,3.826979637145996,-0.21246066689491272,0.14942699670791626,0.024572692811489105
1776994596.5910988,takeoff,3.7161290645599365,-0.28506502509117126,0.1778881996870041,0.15059490501880646
1776994596.696046,takeoff,3.7266862392425537,-0.3565409779548645,0.3223310708999634,0.15209294855594635
1776994596.80109,takeoff,3.552492618560791,-0.4730112850666046,0.3452798128128052,0.19193054735660553
1776994596.9061859,takeoff,3.9642229080200195,-0.5600095987319946,0.4207094609737396,0.14850205183029175
1776994597.01063,takeoff,4.011730194091797,-0.6290501356124878,0.5009811520576477,0.10565242916345596
1776994597.112482,takeoff,4.0170087814331055,-0.6739267706871033,0.5840062499046326,0.06934192031621933
1776994597.213048,takeoff,4.0170087814331055,-0.7067465782165527,0.6570230722427368,0.03592349961400032
1776994597.313452,takeoff,4.0170087814331055,-0.7259956002235413,0.7193938493728638,0.004483889788389206
1776994597.418562,takeoff,4.0170087814331055,-0.7298445701599121,0.7684810161590576,-0.02511243149638176
1776994597.518956,takeoff,4.022287368774414,-0.7171842455863953,0.8035507798194885,-0.05399281904101372
1776994597.6236632,takeoff,4.022287368774414,-0.6867000460624695,0.8232622742652893,-0.08315255492925644
1776994597.727324,takeoff,4.022287368774414,-0.6363968849182129,0.8261333107948303,-0.11384613811969757
1776994597.832101,takeoff,4.022287368774414,-0.5659997463226318,0.8107083439826965,-0.14650790393352509
1776994597.936188,takeoff,4.022287368774414,-0.47376298904418945,0.7758192420005798,-0.182614266872406
1776994598.0412722,takeoff,4.022287368774414,-0.35839706659317017,0.7200927734375,-0.2233552634716034
1776994598.1415749,takeoff,4.022287368774414,-0.21876056492328644,0.6423214673995972,-0.2700158655643463
1776994598.246667,takeoff,4.022287368774414,-0.05184046924114227,0.5401304960250854,-0.3245437443256378
1776994598.348022,takeoff,4.022287368774414,0.14025945961475372,0.41434839367866516,-0.38724836707115173
1776994598.4513128,takeoff,4.027565956115723,0.3602178394794464,0.26283133029937744,-0.4600924849510193
1776994598.553552,takeoff,4.027565956115723,0.6091338992118835,0.08443637192249298,-0.544622540473938
1776994598.653999,takeoff,4.027565956115723,0.888097882270813,-0.12189044058322906,-0.6424108147621155
1776994598.755327,takeoff,4.027565956115723,1.2013732194900513,-0.35978707671165466,-0.7562245726585388
1776994598.859993,takeoff,4.027565956115723,1.5437836647033691,-0.6256624460220337,-0.8855673670768738
1776994598.963657,takeoff,4.027565956115723,1.9192869663238525,-0.9227189421653748,-1.0332530736923218
1776994599.064384,takeoff,4.027565956115723,2.328735589981079,-1.2518424987792969,-1.201195478439331
1776994599.1646578,takeoff,4.027565956115723,2.7776520252227783,-1.6177788972854614,-1.3932217359542847
1776994599.269706,takeoff,4.027565956115723,3.258026599884033,-2.01422119140625,-1.6073815822601318
1776994599.374764,takeoff,4.027565956115723,4.329251766204834,-2.9122791290283203,-2.115746259689331
1776994599.4793038,takeoff,4.027565956115723,4.921623706817627,-3.4155025482177734,-2.41402530670166
1776994599.5832782,takeoff,4.027565956115723,5.559164047241211,-3.9613707065582275,-2.747788906097412
1776994599.686147,takeoff,4.027565956115723,6.22985315322876,-4.539747714996338,-3.112612009048462
1776994599.7893498,takeoff,4.032844543457031,6.940410137176514,-5.1565327644348145,-3.513845682144165
1776994599.893548,takeoff,4.032844543457031,7.691350936889648,-5.812370300292969,-3.9536731243133545
1776994599.998611,hover,4.032844543457031,8.491388320922852,-6.514988899230957,-4.439260005950928
1776994600.102842,hover,4.032844543457031,9.239839553833008,-7.175559043884277,-4.908729076385498
1776994600.207906,hover,4.032844543457031,10.111003875732422,-7.948015213012695,-5.473280429840088
1776994600.313065,hover,4.032844543457031,-1.8720952539297286e-06,-2.932911911557312e-06,-0.0008052752818912268
1776994600.413741,hover,4.032844543457031,-0.00022106959659140557,-0.00046322669368237257,2.610865831375122
1776994600.518463,hover,4.032844543457031,-0.0009508234797976911,-0.001887045451439917,2.4163131713867188
1776994600.621995,hover,4.032844543457031,-0.002722015604376793,-0.005157187581062317,2.1378049850463867
1776994600.726787,hover,4.032844543457031,-0.007874933071434498,-0.014623704366385937,2.0890042781829834
1776994600.8276842,hover,4.032844543457031,-0.013191216625273228,-0.024806704372167587,1.9658414125442505
1776994600.9327612,hover,4.032844543457031,-0.01692546345293522,-0.03209097310900688,1.8585245609283447
1776994601.0378208,hover,4.032844543457031,-0.020426424220204353,-0.03898130729794502,1.7456281185150146
1776994601.142758,hover,4.03812313079834,-0.02576410584151745,-0.04941871762275696,1.899375557899475
1776994601.2447438,hover,4.032844543457031,-0.030498651787638664,-0.05881242826581001,1.7964221239089966
1776994601.346975,hover,4.032844543457031,-0.035894740372896194,-0.06945771723985672,1.7061645984649658
1776994601.452053,hover,4.03812313079834,-0.04197877645492554,-0.08172424882650375,1.8720052242279053
1776994601.553505,hover,4.03812313079834,-0.04924745485186577,-0.09631861001253128,1.805398941040039
1776994601.6542668,hover,4.03812313079834,-0.05739274248480797,-0.11280898749828339,1.7171181440353394
1776994601.75492,hover,4.03812313079834,-0.06901193410158157,-0.1366838961839676,1.89234459400177
1776994601.855737,hover,4.03812313079834,-0.0824195146560669,-0.1639920473098755,1.8150155544281006
1776994601.960691,hover,4.03812313079834,-0.09974478930234909,-0.19873912632465363,1.7216452360153198
1776994602.064963,hover,4.03812313079834,-0.12799514830112457,-0.2555021047592163,1.8917324542999268
1776994602.165453,hover,4.03812313079834,-0.15854166448116302,-0.3172800838947296,1.796724557876587
1776994602.2702122,hover,4.03812313079834,-0.19988928735256195,-0.40084853768348694,1.7185183763504028
1776994602.375264,hover,4.03812313079834,-0.35702410340309143,-0.7176474332809448,1.781469702720642
1776994602.4773161,hover,4.03812313079834,-0.47426363825798035,-0.9549874663352966,1.712947964668274
1776994602.578156,hover,4.03812313079834,-0.7115676999092102,-1.433219075202942,1.9003398418426514
1776994602.6832378,hover,4.03812313079834,-0.9540424346923828,-1.9240130186080933,1.8063380718231201
1776994602.7836318,hover,4.03812313079834,-1.3248320817947388,-2.674091100692749,1.722372055053711
1776994602.888681,hover,4.03812313079834,-2.1528449058532715,-4.340210914611816,1.9072052240371704
1776994602.9937239,hover,4.03812313079834,-3.0033304691314697,-6.05776309967041,1.8400824069976807
1776994603.098776,land,4.03812313079834,-4.264474868774414,-8.598127365112305,1.8097608089447021
1776994603.202831,land,4.03812313079834,-6.444849014282227,-13.016711235046387,2.0240166187286377
1776994603.307879,land,4.03812313079834,-8.290688514709473,-16.73550796508789,2.0088698863983154
1776994603.412948,land,4.03812313079834,-7.592570000269916e-06,-1.6841344404383563e-05,-0.003589582396671176
1776994603.515841,land,4.03812313079834,-0.0002870738389901817,-0.0005782346124760807,2.585476875305176
1776994603.619483,land,4.03812313079834,-0.0010166112333536148,-0.0019892887212336063,2.355674982070923
1776994603.7212129,land,4.03812313079834,-0.0027314056642353535,-0.005383361130952835,2.063861846923828
1776994603.8262699,land,4.03812313079834,-0.007475473452359438,-0.01485208235681057,2.000680446624756
1776994603.927519,land,4.03812313079834,-0.012447639368474483,-0.024859454482793808,1.8538920879364014
1776994604.032605,land,4.03812313079834,-0.01616518571972847,-0.03207911178469658,1.7522202730178833
1776994604.137692,land,4.043401718139648,-0.019700173288583755,-0.03874216228723526,1.8985580205917358
1776994604.242763,land,4.03812313079834,-0.024676794186234474,-0.04856056720018387,1.7930830717086792
1776994604.347851,land,4.03812313079834,-0.02961600199341774,-0.05803317576646805,1.7094089984893799
1776994604.4484758,land,4.043401718139648,-0.034890253096818924,-0.06838430464267731,1.8879783153533936
1776994604.552233,land,4.043401718139648,-0.040797553956508636,-0.0800388753414154,1.7881712913513184
1776994604.656786,land,4.043401718139648,-0.047818925231695175,-0.09404922276735306,1.704830527305603
1776994604.761893,land,4.03812313079834,-0.056988805532455444,-0.11232011765241623,1.8871324062347412
1776994604.863619,land,4.03812313079834,-0.0679422914981842,-0.13396713137626648,1.7856284379959106
1776994604.968673,land,4.043401718139648,-0.08098448812961578,-0.15948404371738434,1.707803726196289
1776994605.073083,land,4.043401718139648,-0.10217220336198807,-0.2013283669948578,1.879714846611023
1776994605.173683,land,4.043401718139648,-0.1261334866285324,-0.24831745028495789,1.7823206186294556
1776994605.2742012,land,4.03812313079834,-0.1554556041955948,-0.3049999475479126,1.768796443939209
1776994605.377453,land,4.043401718139648,-0.2677391469478607,-0.5263787508010864,1.8524757623672485
1776994605.480433,land,4.043401718139648,-0.3509981334209442,-0.6907699108123779,1.7746906280517578
1776994605.5851269,land,4.043401718139648,-0.5098795294761658,-1.0036838054656982,1.9219480752944946
1776994605.686198,land,4.043401718139648,-0.686152994632721,-1.3512176275253296,1.8433558940887451
1776994605.791286,land,4.043401718139648,-0.9334396719932556,-1.838308572769165,1.7670987844467163
1776994605.892184,land,4.043401718139648,-1.4722243547439575,-2.9044718742370605,1.9389865398406982
1776994605.9937449,land,4.043401718139648,-2.0648655891418457,-4.0754714012146,1.861414909362793
1776994606.095948,land,4.043401718139648,-2.96626353263855,-5.859838008880615,1.8152989149093628
1776994606.196954,land,4.043401718139648,-4.7371625900268555,-9.340386390686035,2.01720929145813
1776994606.299104,land,4.043401718139648,-6.405881881713867,-12.634238243103027,1.9950302839279175
1776994606.401821,land,4.043401718139648,-8.286486625671387,-16.358501434326172,1.9884449243545532
1776994606.502811,land,4.043401718139648,-6.4275768636434805e-06,-1.1897182048414834e-05,2.6768798828125
1776994606.6051872,land,4.043401718139648,-0.0002142412995453924,-0.0005000812234356999,2.575467109680176
1776994606.710112,land,4.043401718139648,-0.0008715540170669556,-0.0018451366340741515,2.3479301929473877
1776994606.815201,land,4.043401718139648,-0.002858913503587246,-0.005858164280653,2.1736090183258057
1776994606.919509,land,4.043401718139648,-0.006972229573875666,-0.013951907865703106,1.9580737352371216
1776994607.0210161,land,4.043401718139648,-0.0122413644567132,-0.024120939895510674,1.8161978721618652
1776994607.1236439,land,4.043401718139648,-0.01601620949804783,-0.031223628669977188,1.9365228414535522
1776994607.2267551,land,4.043401718139648,-0.019397031515836716,-0.03818061947822571,1.8579431772232056
1776994607.3300202,land,4.043401718139648,-0.024299360811710358,-0.04801228269934654,1.7695374488830566
1776994607.431943,land,4.043401718139648,-0.02906753122806549,-0.05754193291068077,1.9013193845748901
1776994607.536559,land,4.043401718139648,-0.03435990959405899,-0.06804767996072769,1.8292831182479858
1776994607.641632,land,4.043401718139648,-0.0401725172996521,-0.07952970266342163,1.728609323501587
1776994607.7467241,land,4.043401718139648,-0.04754700884222984,-0.09406477957963943,1.8989028930664062
1776994607.846978,land,4.043401718139648,-0.05577642470598221,-0.11058106273412704,1.8219956159591675
1776994607.949878,land,4.043401718139648,-0.06641215085983276,-0.13190603256225586,1.7437756061553955
1776994608.051788,land,4.043401718139648,-0.08184035867452621,-0.16317911446094513,1.90324068069458
