timestamp,phase,battery_v,x_m,y_m,z_m
1776993551.475447,takeoff,3.6158359050750732,0.007020207121968269,0.11753980070352554,-0.0007932034204714
1776993551.580506,takeoff,3.7002933025360107,0.007943404838442802,0.09986871480941772,-0.00011807292321464047
1776993551.6820202,takeoff,3.721407651901245,0.017995581030845642,0.10076974332332611,0.0020405054092407227
1776993551.786365,takeoff,3.721407651901245,0.026320604607462883,0.10311546921730042,0.002509538782760501
1776993551.886864,takeoff,3.7161290645599365,0.02439184859395027,0.11234165728092194,0.0017029143637046218
1776993551.987496,takeoff,3.710850477218628,0.027230771258473396,0.11053523421287537,0.0031082562636584044
1776993552.0916622,takeoff,3.710850477218628,0.021686503663659096,0.10857121646404266,0.005248711444437504
1776993552.194463,takeoff,3.7002933025360107,0.02062513306736946,0.09770623594522476,0.007730712182819843
1776993552.2977338,takeoff,3.6897361278533936,0.03306330740451813,0.1076686754822731,0.008990701287984848
1776993552.402081,takeoff,3.684457540512085,0.04544694721698761,0.12075112760066986,0.010275829583406448
1776993552.504684,takeoff,3.6791789531707764,0.057083114981651306,0.1302490234375,0.011718266643583775
1776993552.608976,takeoff,3.658064603805542,0.05001869052648544,0.13398905098438263,0.013924732804298401
1776993552.7120068,takeoff,3.621114492416382,0.044976357370615005,0.11462851613759995,0.02321619912981987
1776993552.814914,takeoff,3.6263930797576904,0.036149103194475174,0.09745809435844421,0.028325969353318214
1776993552.918398,takeoff,3.642228841781616,0.012881522066891193,0.06814870238304138,0.046499498188495636
1776993553.02176,takeoff,3.6369502544403076,0.00161226827185601,0.06799130141735077,0.08758137375116348
1776993553.126833,takeoff,3.642228841781616,-0.00014951433695387095,0.08623787760734558,0.117507204413414
1776993553.2307682,takeoff,3.621114492416382,0.0023396227043122053,0.11025208234786987,0.13883189857006073
1776993553.3358562,takeoff,3.621114492416382,0.00765488063916564,0.1387881636619568,0.1589147448539734
1776993553.4390569,takeoff,3.6158359050750732,0.011742349714040756,0.16720201075077057,0.18330062925815582
1776993553.544298,takeoff,3.6158359050750732,0.012013847008347511,0.19140329957008362,0.21470534801483154
1776993553.6452448,takeoff,3.621114492416382,0.006300940178334713,0.2053884118795395,0.24477499723434448
1776993553.745823,takeoff,3.621114492416382,0.0007804744527675211,0.21289248764514923,0.2775527834892273
1776993553.848286,takeoff,3.621114492416382,-0.0009462620364502072,0.21877950429916382,0.3110288679599762
1776993553.953108,takeoff,3.631671667098999,-0.0031939407344907522,0.2163657695055008,0.3447130024433136
1776993554.055423,takeoff,3.631671667098999,-0.0017585622845217586,0.21272553503513336,0.3789123296737671
1776993554.160514,takeoff,3.631671667098999,-0.004488593898713589,0.21246787905693054,0.4124366044998169
1776993554.2650518,takeoff,3.631671667098999,-0.0033851268235594034,0.21675801277160645,0.43720799684524536
1776993554.368819,hover,3.6158359050750732,-0.015828201547265053,0.21608862280845642,0.456284761428833
1776993554.469903,hover,3.621114492416382,-0.030057501047849655,0.2189548909664154,0.47152936458587646
1776993554.572638,hover,3.621114492416382,-0.04595409333705902,0.22361251711845398,0.4880501925945282
1776993554.67771,hover,3.6105573177337646,-0.04920375347137451,0.2317681461572647,0.4971022605895996
1776993554.782779,hover,3.621114492416382,-0.067782923579216,0.2318449318408966,0.508491039276123
1776993554.887842,hover,3.6105573177337646,-0.07566577941179276,0.21343986690044403,0.5281704664230347
1776993554.992883,hover,3.605278730392456,-0.08812195062637329,0.21912938356399536,0.5309864282608032
1776993555.096222,hover,3.6105573177337646,-0.08648594468832016,0.2153848558664322,0.5388748645782471
1776993555.196588,hover,3.6158359050750732,-0.07751281559467316,0.21709024906158447,0.5421672463417053
1776993555.300927,hover,3.621114492416382,-0.0694694072008133,0.21947957575321198,0.5484949946403503
1776993555.403584,hover,3.6158359050750732,-0.06616959720849991,0.22327594459056854,0.5514659285545349
1776993555.504079,hover,3.605278730392456,-0.06084075942635536,0.2298954725265503,0.5495005249977112
1776993555.60916,hover,3.605278730392456,-0.06204527989029884,0.235717311501503,0.5455774068832397
1776993555.714249,hover,3.6000001430511475,-0.062489792704582214,0.24262243509292603,0.5410604476928711
1776993555.815695,hover,3.594721555709839,-0.06833972036838531,0.24325892329216003,0.5355938673019409
1776993555.9207659,hover,3.6000001430511475,-0.07432648539543152,0.23855122923851013,0.5311098694801331
1776993556.025845,hover,3.605278730392456,-0.07632426172494888,0.23034973442554474,0.5267613530158997
1776993556.127156,hover,3.605278730392456,-0.08073945343494415,0.21207956969738007,0.5226131081581116
1776993556.23056,hover,3.621114492416382,-0.08253670483827591,0.2035459727048874,0.5171027779579163
1776993556.3356512,hover,3.6263930797576904,-0.08512599021196365,0.19119495153427124,0.5046631693840027
1776993556.437439,hover,3.631671667098999,-0.10293494910001755,0.19241507351398468,0.4880713224411011
1776993556.5401301,hover,3.631671667098999,-0.24485649168491364,0.1824786365032196,0.46377456188201904
1776993556.645215,hover,3.642228841781616,-0.518190860748291,0.2582045793533325,0.38058799505233765
1776993556.750289,hover,3.6105573177337646,-2.323739528656006,0.6570130586624146,0.15813857316970825
1776993556.8540711,hover,3.5313782691955566,-3.27662992477417,0.808082103729248,0.08882737159729004
1776993556.9546828,hover,3.526099681854248,-0.015680570155382156,0.02038470283150673,1.8149701356887817
1776993557.0597708,hover,3.4785923957824707,-0.024953728541731834,0.06457856297492981,0.3849375247955322
1776993557.161904,hover,3.2041056156158447,0.07788146287202835,0.0725582167506218,-0.0051152389496564865
1776993557.264312,hover,3.2304985523223877,-0.27296870946884155,0.4804055392742157,-0.3728218972682953
1776993557.364907,hover,3.251612901687622,-1.0023316144943237,0.9149407148361206,-0.7110996246337891
1776993557.46968,land,3.251612901687622,-1.6332075595855713,1.1106349229812622,-1.0688408613204956
1776993557.572154,land,3.241055727005005,-2.024831771850586,1.078831434249878,-1.550706386566162
1776993557.6731572,land,3.2357771396636963,-2.3539209365844727,1.001434087753296,-2.1469452381134033
1776993557.773765,land,3.2357771396636963,-2.697409152984619,0.8937766551971436,-2.8489983081817627
1776993557.8788931,land,3.2357771396636963,-3.0500173568725586,0.7617253065109253,-3.644577980041504
1776993557.981336,land,3.2357771396636963,-3.417633056640625,0.6048589944839478,-4.539966583251953
1776993558.086315,land,3.14604115486145,0.0001484650420024991,-1.4608460332965478e-05,0.5184075832366943
1776993558.186893,land,2.966568946838379,0.00035233638482168317,-0.001426805043593049,0.12248961627483368
1776993558.290698,land,3.0246334075927734,0.09844616800546646,0.0029221419245004654,0.7725207209587097
1776993558.3955462,land,3.721407651901245,0.0971636176109314,-0.007237500045448542,0.9866046905517578
1776993558.500639,land,3.816422462463379,-0.05341622605919838,-0.04264998063445091,1.1003684997558594
1776993558.6029792,land,3.8217010498046875,-0.3125115633010864,-0.12298240512609482,1.1128768920898438
1776993558.703617,land,3.826979637145996,-0.7340438365936279,-0.21162386238574982,0.9939443469047546
1776993558.808671,land,3.8322582244873047,-1.1831973791122437,-0.2869361639022827,0.8311288356781006
1776993558.9113102,land,3.8322582244873047,-1.7208243608474731,-0.36767587065696716,0.5869981050491333
1776993559.016397,land,3.8375368118286133,-2.1936206817626953,-0.43738147616386414,0.4125196635723114
1776993559.119715,land,3.8375368118286133,-2.5317952632904053,-0.4855620265007019,0.4129839837551117
1776993559.224805,land,3.842815399169922,-2.8576817512512207,-0.5469202399253845,0.4171109199523926
1776993559.3298922,land,3.842815399169922,-3.2127153873443604,-0.6697657704353333,0.4666179418563843
1776993559.435015,land,3.8480939865112305,-3.752230167388916,-0.8012292385101318,0.4462144374847412
1776993559.540231,land,3.8480939865112305,-4.5824761390686035,-0.9343249201774597,0.4408528506755829
1776993559.642844,land,3.8480939865112305,-5.914196014404297,-1.0920536518096924,0.4597669541835785
1776993559.744648,land,3.853372573852539,-7.599368572235107,-1.291050910949707,0.5316336154937744
1776993559.848216,land,3.853372573852539,-9.312121391296387,-1.4845867156982422,0.6423012018203735
1776993559.949114,land,3.853372573852539,-10.92929744720459,-1.6753426790237427,0.7892236709594727
1776993560.050569,land,3.8586511611938477,-12.475082397460938,-1.8230772018432617,0.9469618797302246
1776993560.1511838,land,3.8586511611938477,-0.0008084875298663974,-0.0012839564587920904,2.6479179859161377
1776993560.2562711,land,3.8586511611938477,-0.0019975081086158752,-0.004303024150431156,2.4944252967834473
1776993560.35812,land,3.8586511611938477,-0.0036444126162678003,-0.00995609164237976,2.230802297592163
1776993560.461914,land,3.8586511611938477,-0.007717073895037174,-0.02721419371664524,2.1198832988739014
1776993560.566983,land,3.8639297485351562,-0.011296751908957958,-0.04867919161915779,1.9273453950881958
1776993560.670775,land,3.8639297485351562,-0.0134204076603055,-0.06462658941745758,1.8159687519073486
1776993560.77173,land,3.8639297485351562,-0.01326514221727848,-0.07229359447956085,1.9562444686889648
1776993560.872925,land,3.8639297485351562,-0.015664635226130486,-0.08733120560646057,1.864572525024414
1776993560.977537,land,3.869208335876465,-0.016854101791977882,-0.10296450555324554,1.7826279401779175
1776993561.080449,land,3.8639297485351562,-0.017983680590987206,-0.11753052473068237,1.9231406450271606
1776993561.185535,land,3.869208335876465,-0.01997266337275505,-0.15126340091228485,1.763562560081482
1776993561.289421,land,3.869208335876465,-0.020514681935310364,-0.17552931606769562,1.9235365390777588
1776993561.3897269,land,3.869208335876465,-0.02403685264289379,-0.2034086287021637,1.837056279182434
1776993561.494812,land,3.869208335876465,-0.02535131201148033,-0.23785200715065002,1.762856364250183
1776993561.599682,land,3.869208335876465,-0.028333282098174095,-0.2911455035209656,1.9335904121398926
1776993561.704114,land,3.8744869232177734,-0.031062867492437363,-0.33906087279319763,1.848982334136963
1776993561.809164,land,3.8744869232177734,-0.03703581541776657,-0.4099574685096741,1.767064094543457
1776993561.9099672,land,3.8744869232177734,-0.04060003161430359,-0.5137054920196533,1.9022128582000732
1776993562.0119412,land,3.879765510559082,-0.048612453043460846,-0.6284953951835632,1.8329319953918457
1776993562.112464,land,3.8744869232177734,-0.05934729427099228,-0.7897523045539856,1.7607322931289673
1776993562.217531,land,3.8744869232177734,-0.06868936866521835,-1.0644819736480713,1.9146723747253418
1776993562.3226602,land,3.879765510559082,-0.08876387029886246,-1.365043044090271,1.8419644832611084
1776993562.427763,land,3.879765510559082,-0.11885344982147217,-1.754109263420105,1.7587460279464722
