timestamp,phase,battery_v,x_m,y_m,z_m
1776994210.893109,takeoff,3.879765510559082,0.026117173954844475,-0.09821616113185883,0.002648585941642523
1776994210.9981608,takeoff,3.9378299713134766,0.027139320969581604,-0.09339374303817749,0.00176773383282125
1776994211.1010492,takeoff,3.943108558654785,0.01220108475536108,-0.05833599716424942,0.0006896867416799068
1776994211.203285,takeoff,3.9483871459960938,0.0076485248282551765,-0.0629420354962349,0.0024206682574003935
1776994211.3083332,takeoff,3.9483871459960938,0.007469940930604935,-0.053742244839668274,0.0015926866326481104
1776994211.40957,takeoff,3.9483871459960938,0.007874644361436367,-0.060421597212553024,0.002409290987998247
1776994211.5103629,takeoff,3.943108558654785,0.015888066962361336,-0.0636288970708847,0.0013104837853461504
1776994211.614008,takeoff,3.9378299713134766,0.018090613186359406,-0.07353372871875763,0.00034487852826714516
1776994211.718905,takeoff,3.9378299713134766,0.026808835566043854,-0.0835370123386383,0.0002611012023407966
1776994211.821779,takeoff,3.932551383972168,0.028096936643123627,-0.09534904360771179,0.0005289037362672389
1776994211.926813,takeoff,3.9272727966308594,0.04731714725494385,-0.10773888230323792,0.0007418787572532892
1776994212.0300941,takeoff,3.9272727966308594,0.041281044483184814,-0.10176422446966171,0.0021792748011648655
1776994212.135177,takeoff,3.916715621948242,0.04449746757745743,-0.10913974791765213,0.0020100618712604046
1776994212.240232,takeoff,3.9114370346069336,0.04836152121424675,-0.1238945797085762,0.0004953326424583793
1776994212.3429499,takeoff,3.906158447265625,0.026728512719273567,-0.1275634467601776,-0.002484481083229184
1776994212.4479659,takeoff,3.9008798599243164,0.0053071617148816586,-0.13520044088363647,0.0035618471447378397
1776994212.553032,takeoff,3.8744869232177734,-0.010684655979275703,-0.10348676145076752,0.004476235713809729
1776994212.6555378,takeoff,3.890322685241699,-0.028554990887641907,-0.049172937870025635,0.010847452096641064
1776994212.7559319,takeoff,3.8850440979003906,-0.01661478541791439,-0.014431694522500038,0.028638852760195732
1776994212.860569,takeoff,3.9008798599243164,0.0009160884073935449,-0.0074840933084487915,0.046295035630464554
1776994212.962631,takeoff,3.895601272583008,0.010653997771441936,-0.022520672529935837,0.06096556782722473
1776994213.0654469,takeoff,3.9008798599243164,-0.006463600322604179,-0.03892853483557701,0.06537076085805893
1776994213.1673348,takeoff,3.906158447265625,-0.05959371104836464,-0.04118026793003082,0.04837637022137642
1776994213.268987,takeoff,3.7794721126556396,-0.17096562683582306,-0.01012963242828846,0.02329324744641781
1776994213.3694022,takeoff,3.7425220012664795,-0.4606255292892456,0.09205053746700287,0.10388913750648499
1776994213.471777,takeoff,3.7583577632904053,-0.7274426817893982,0.0882461667060852,0.2226947695016861
1776994213.576865,takeoff,4.059237480163574,-0.8607871532440186,0.2238285392522812,0.24793599545955658
1776994213.679126,takeoff,4.064516067504883,-0.9379191994667053,0.35191279649734497,0.30608442425727844
1776994213.782332,takeoff,4.069794654846191,-0.9587916731834412,0.4590814411640167,0.4065302014350891
1776994213.886813,takeoff,4.069794654846191,-0.93116694688797,0.5992440581321716,0.4708215594291687
1776994213.990447,takeoff,4.069794654846191,-0.8710196018218994,0.7565821409225464,0.5359001159667969
1776994214.090574,takeoff,4.069794654846191,-0.8280476331710815,0.8752816915512085,0.6570771932601929
1776994214.1956632,takeoff,4.069794654846191,-0.7567249536514282,0.9944584965705872,0.7680848836898804
1776994214.297445,takeoff,4.069794654846191,-0.6586768627166748,1.0995107889175415,0.8797348737716675
1776994214.402234,takeoff,4.0750732421875,-0.3476960062980652,1.3184118270874023,1.0786644220352173
1776994214.506571,takeoff,4.0750732421875,-0.19620579481124878,1.4026415348052979,1.204602837562561
1776994214.611721,takeoff,4.0750732421875,-0.0016925781965255737,1.4777722358703613,1.3189629316329956
1776994214.713141,takeoff,4.0750732421875,0.20974436402320862,1.5461509227752686,1.4427719116210938
1776994214.8182342,takeoff,4.0750732421875,0.4050913453102112,1.57966947555542,1.583058476448059
1776994214.9233239,takeoff,4.0750732421875,0.6470863819122314,1.6183923482894897,1.710054636001587
1776994215.027201,takeoff,4.0750732421875,1.0113016366958618,1.6508888006210327,1.7889056205749512
1776994215.129833,takeoff,4.0750732421875,1.3073502779006958,1.6841487884521484,1.933319091796875
1776994215.2349179,takeoff,4.0750732421875,1.5754530429840088,1.673702359199524,2.0959713459014893
1776994215.3371148,takeoff,4.0750732421875,1.8790956735610962,1.6420515775680542,2.2492525577545166
1776994215.4398248,takeoff,4.080351829528809,2.3333983421325684,1.5847500562667847,2.3251395225524902
1776994215.54387,takeoff,4.080351829528809,2.8208558559417725,1.5002431869506836,2.3918747901916504
1776994215.6474571,takeoff,4.080351829528809,3.1356277465820312,1.4454991817474365,2.613152503967285
1776994215.7476811,hover,4.080351829528809,3.5224835872650146,1.3529053926467896,2.7916042804718018
1776994215.848843,hover,4.080351829528809,3.9006829261779785,1.2454423904418945,2.9834060668945312
1776994215.952201,hover,4.080351829528809,4.302207946777344,1.1150418519973755,3.1691229343414307
1776994216.055369,hover,4.080351829528809,4.760688304901123,1.0138368606567383,3.371492385864258
1776994216.1600251,hover,4.080351829528809,5.356057167053223,0.759368896484375,3.4242496490478516
1776994216.264338,hover,4.080351829528809,5.987570762634277,0.4638134241104126,3.4611830711364746
1776994216.3695931,hover,4.080351829528809,6.642730712890625,0.13143211603164673,3.479931116104126
1776994216.4746518,hover,4.080351829528809,7.237858295440674,-0.0860055536031723,3.6616153717041016
1776994216.574722,hover,4.080351829528809,7.789318084716797,-0.2434811145067215,3.940302848815918
1776994216.675742,hover,4.080351829528809,8.394759178161621,-0.5647392868995667,4.078744888305664
1776994216.780752,hover,4.080351829528809,9.141495704650879,-1.0399248600006104,4.059474468231201
1776994216.8819149,hover,4.080351829528809,9.813018798828125,-1.3966952562332153,4.202131748199463
1776994216.98695,hover,4.080351829528809,10.439353942871094,-1.6608487367630005,4.46766996383667
1776994217.092028,hover,4.080351829528809,11.2282075881958,-2.210538148880005,4.441949367523193
1776994217.1970801,hover,4.080351829528809,11.965590476989746,-2.623958110809326,4.593954086303711
1776994217.302176,hover,4.080351829528809,13.306669235229492,-3.3308801651000977,5.011063575744629
1776994217.4033332,hover,4.080351829528809,14.17980670928955,-4.0632100105285645,4.892066955566406
1776994217.508414,hover,4.085630416870117,15.170377731323242,-4.928744792938232,4.721652030944824
1776994217.613475,hover,4.080351829528809,15.795677185058594,-5.381447792053223,4.913681507110596
1776994217.718605,hover,4.080351829528809,16.618627548217773,-5.564631462097168,5.353547096252441
1776994217.820809,hover,4.085630416870117,0.00014948371972423047,-0.0005788136622868478,2.6271045207977295
1776994217.925948,hover,4.085630416870117,0.0002443063713144511,-0.002811714308336377,2.4386134147644043
1776994218.026813,hover,4.080351829528809,0.00033928646007552743,-0.009583136066794395,2.260389566421509
1776994218.1318521,hover,4.085630416870117,0.0002776556648313999,-0.026460621505975723,2.0371406078338623
1776994218.2358148,hover,4.085630416870117,0.00035142715205438435,-0.048708926886320114,1.8682117462158203
1776994218.341007,hover,4.085630416870117,-0.00041184527799487114,-0.06751925498247147,1.9981157779693604
1776994218.4456818,hover,4.085630416870117,-0.0005048105376772583,-0.07926279306411743,1.9003212451934814
1776994218.546127,hover,4.085630416870117,-0.0009927869541570544,-0.09906431287527084,1.7955979108810425
1776994218.6465988,hover,4.085630416870117,-0.001364930416457355,-0.12086828052997589,1.9580860137939453
1776994218.751894,land,4.085630416870117,-0.0020868100691586733,-0.14088772237300873,1.8697937726974487
1776994218.852215,land,4.085630416870117,-0.0027422341518104076,-0.16485822200775146,1.7743291854858398
1776994218.953276,land,4.085630416870117,-0.003525634529069066,-0.1939583122730255,1.9362715482711792
1776994219.057013,land,4.085630416870117,-0.0032763411290943623,-0.2287125140428543,1.834429383277893
1776994219.161678,land,4.085630416870117,-0.0070874048396945,-0.2658538818359375,1.7722911834716797
1776994219.26424,land,4.085630416870117,-0.007018628995865583,-0.32554876804351807,1.9390932321548462
1776994219.3686988,land,4.085630416870117,-0.0037453293334692717,-0.3951958119869232,1.8505686521530151
1776994219.469226,land,4.085630416870117,-0.009396934881806374,-0.4389815032482147,1.7710795402526855
1776994219.569951,land,4.085630416870117,-0.004316976293921471,-0.6024683713912964,1.945823311805725
1776994219.6714702,land,4.085630416870117,-0.01362613495439291,-0.7181633114814758,1.8560059070587158
1776994219.7717881,land,4.085630416870117,-0.018840378150343895,-0.9084111452102661,1.7808279991149902
1776994219.876862,land,4.085630416870117,-0.022193223237991333,-1.220457911491394,1.9492151737213135
1776994219.980057,land,4.085630416870117,-0.02761540748178959,-1.5917669534683228,1.8715342283248901
1776994220.083075,land,4.085630416870117,-0.04128091037273407,-2.0383613109588623,1.7938371896743774
1776994220.186644,land,4.085630416870117,-0.06467314064502716,-2.5882511138916016,1.7059788703918457
1776994220.291699,land,4.085630416870117,-0.06552426517009735,-3.7941415309906006,1.871189832687378
1776994220.396794,land,4.085630416870117,-0.10089261829853058,-4.979523658752441,1.7969746589660645
1776994220.499295,land,4.085630416870117,-0.19868510961532593,-9.51662826538086,1.9175254106521606
1776994220.604388,land,4.085630416870117,-0.2452850043773651,-12.068523406982422,1.8671927452087402
1776994220.7062342,land,4.085630416870117,-0.3215092718601227,-15.93918514251709,1.9901477098464966
1776994220.8113012,land,4.085630416870117,-2.538729677326046e-05,-3.538328383001499e-05,2.6758995056152344
1776994220.916047,land,4.085630416870117,-0.00013547492562793195,-0.0011789922136813402,2.567133903503418
1776994221.021117,land,4.085630416870117,-0.00025784302852116525,-0.004210716113448143,2.320033311843872
1776994221.126175,land,4.085630416870117,-0.0007012324058450758,-0.012648610398173332,2.134552240371704
1776994221.229166,land,4.085630416870117,-0.0016429724637418985,-0.02997584454715252,1.9191288948059082
1776994221.329687,land,4.085630416870117,-0.002020747633650899,-0.05603107810020447,1.9833179712295532
1776994221.4347641,land,4.085630416870117,-0.002819491783156991,-0.07068014144897461,1.8780962228775024
1776994221.53985,land,4.085630416870117,-0.002730086911469698,-0.08546476066112518,1.7818772792816162
1776994221.6449301,land,4.085630416870117,-0.0026701041497290134,-0.10639862716197968,1.670291781425476
1776994221.7500129,land,4.085630416870117,-0.0027525522746145725,-0.1279938966035843,1.8390529155731201
1776994221.852653,land,4.085630416870117,-0.002820808906108141,-0.14825204014778137,1.8246644735336304
1776994221.953269,land,4.085630416870117,-0.0026041376404464245,-0.17598140239715576,1.7206065654754639
1776994222.0559711,land,4.085630416870117,-0.0029331601690500975,-0.20390072464942932,1.8923074007034302
1776994222.1580899,land,4.085630416870117,-0.002542380476370454,-0.24559983611106873,1.8106364011764526
1776994222.260979,land,4.085630416870117,-0.003128106240183115,-0.2822020947933197,1.7109193801879883
1776994222.3641012,land,4.085630416870117,-0.0053145806305110455,-0.3435169458389282,1.8902392387390137
1776994222.469217,land,4.085630416870117,-0.001865173107944429,-0.42750245332717896,1.817731499671936
1776994222.570473,land,4.085630416870117,-0.006031650584191084,-0.47596678137779236,1.7312920093536377
1776994222.674612,land,4.090909004211426,0.006695672869682312,-0.6665612459182739,1.8992018699645996
1776994222.774967,land,4.085630416870117,-0.006834283005446196,-0.8132845759391785,1.8126482963562012
1776994222.880026,land,4.085630416870117,-0.007220656611025333,-1.0317000150680542,1.7266674041748047
1776994222.985112,land,4.090909004211426,-0.006659719627350569,-1.4363881349563599,1.894769549369812
1776994223.086606,land,4.090909004211426,-0.006228613201528788,-1.8330674171447754,1.8191101551055908
1776994223.188493,land,4.085630416870117,-0.016290800645947456,-2.354154109954834,1.7293320894241333
1776994223.2935839,land,4.090909004211426,-0.008851866237819195,-3.3871121406555176,1.9001038074493408
1776994223.396499,land,4.090909004211426,-0.01480844896286726,-4.459117889404297,1.8152159452438354
1776994223.498501,land,4.090909004211426,-0.028064707294106483,-6.652573108673096,1.9864449501037598
1776994223.6021829,land,4.090909004211426,-0.05422457307577133,-11.158388137817383,1.8618786334991455
1776994223.703787,land,4.085630416870117,-0.05131729692220688,-13.921278953552246,1.8097046613693237
